{
    "results": [
        {
            "address_components": [
                {
                    "long_name": "U.S. 40",
                    "short_name": "US-40",
                    "types": [
                        "route"
                    ]
                },
                {
                    "long_name": "United States",
                    "short_name": "US",
                    "types": [
                        "country",
                        "political"
                    ]
                }
            ],
            "formatted_address": "US-40, United States",
            "geometry": {
                "bounds": {
                    "northeast": {
                        "lat": 40.7565988,
                        "lng": -74.4525627
                    },
                    "southwest": {
                        "lat": 38.5686601,
                        "lng": -111.5229817
                    }
                },
                "location": {
                    "lat": 39.0018994,
                    "lng": -92.7336228
                },
                "location_type": "GEOMETRIC_CENTER",
                "viewport": {
                    "northeast": {
                        "lat": 40.7565988,
                        "lng": -74.4525627
                    },
                    "southwest": {
                        "lat": 38.5686601,
                        "lng": -111.5229817
                    }
                }
            },
            "partial_match": true,
            "place_id": "ChIJBcczYbSNwocR91SS-q8Qqdg",
            "types": [
                "route"
            ]
        },
        {
            "address_components": [
                {
                    "long_name": "Hudson Street",
                    "short_name": "Hudson St",
                    "types": [
                        "route"
                    ]
                },
                {
                    "long_name": "East",
                    "short_name": "East",
                    "types": [
                        "neighborhood",
                        "political"
                    ]
                },
                {
                    "long_name": "Denver",
                    "short_name": "Denver",
                    "types": [
                        "locality",
                        "political"
                    ]
                },
                {
                    "long_name": "Denver County",
                    "short_name": "Denver County",
                    "types": [
                        "administrative_area_level_2",
                        "political"
                    ]
                },
                {
                    "long_name": "Colorado",
                    "short_name": "CO",
                    "types": [
                        "administrative_area_level_1",
                        "political"
                    ]
                },
                {
                    "long_name": "United States",
                    "short_name": "US",
                    "types": [
                        "country",
                        "political"
                    ]
                }
            ],
            "formatted_address": "Hudson St, Denver, CO, USA",
            "geometry": {
                "bounds": {
                    "northeast": {
                        "lat": 39.769503,
                        "lng": -104.9213643
                    },
                    "southwest": {
                        "lat": 39.7158047,
                        "lng": -104.9272044
                    }
                },
                "location": {
                    "lat": 39.743397,
                    "lng": -104.9234505
                },
                "location_type": "GEOMETRIC_CENTER",
                "viewport": {
                    "northeast": {
                        "lat": 39.769503,
                        "lng": -104.9213643
                    },
                    "southwest": {
                        "lat": 39.7158047,
                        "lng": -104.9272044
                    }
                }
            },
            "partial_match": true,
            "place_id": "ChIJGXOrBQl8bIcR6ki_6foXe1U",
            "types": [
                "route"
            ]
        }
    ],
    "status": "OK"
}